,City_Name,Lat,Lon,Max_Temp,Humidity,Cloudiness,Wind_Speed,Country,Date
0,mataura,-46.19,168.86,58.95,74,83,2.93,NZ,1588477503
1,butaritari,3.07,172.79,83.35,81,32,14.79,KI,1588477241
2,san quintin,30.48,-115.95,64.45,77,0,14.63,MX,1588477261
3,georgetown,5.41,100.34,89.6,70,20,5.82,MY,1588477391
4,homer,59.64,-151.55,51.8,53,40,8.05,US,1588477462
5,barsi,18.23,75.7,96.78,18,7,14.29,IN,1588477504
6,bluff,-46.6,168.33,58.19,72,100,9.1,NZ,1588477504
7,guerrero negro,27.98,-114.06,63.99,83,0,16.93,MX,1588477504
8,yumen,40.28,97.2,70,20,99,25.26,CN,1588477320
9,pevek,69.7,170.31,31.39,93,2,3.98,RU,1588477504
10,ushuaia,-54.8,-68.3,40.1,83,33,4.47,AR,1588477504
11,yaan,7.38,8.57,78.15,84,86,7.94,NG,1588477505
12,faanui,-16.48,-151.75,82.15,78,79,14.74,PF,1588477505
13,taolanaro,,,,,,,,
14,victoria,22.29,114.16,86,62,20,10.29,HK,1588477368
15,fayetteville,35.05,-78.88,66.99,63,1,4.7,US,1588477339
16,na klang,17.31,102.19,95,52,20,3.36,TH,1588477506
17,klaksvik,62.23,-6.59,39.2,69,84,12.75,FO,1588477506
18,saint-philippe,-21.36,55.77,75.2,68,37,4.7,RE,1588477223
19,kyshtovka,56.55,76.63,49.46,69,89,10.25,RU,1588477506
20,busselton,-33.65,115.33,79,32,0,17.96,AU,1588477506
21,santa lucia,27.91,-15.54,64.4,88,20,2.24,ES,1588477506
22,albany,42.6,-73.97,59,63,82,4.09,US,1588477242
23,jamestown,42.1,-79.24,60.8,55,75,11.41,US,1588477507
24,kapaa,22.08,-159.32,78.8,65,20,18.34,US,1588477507
25,vaini,-21.2,-175.2,80.6,78,20,9.17,TO,1588477507
26,lebu,-37.62,-73.65,53.83,86,61,3.94,CL,1588477507
27,cherskiy,68.75,161.3,34.52,96,90,2.8,RU,1588477310
28,lokosovo,61.13,74.82,39.42,75,92,9.48,RU,1588477508
29,comodoro rivadavia,-45.87,-67.5,51.8,76,0,9.93,AR,1588477415
30,rikitea,-23.12,-134.97,75.81,74,58,13.65,PF,1588477508
31,whithorn,18.26,-78.04,82.4,78,40,4.7,JM,1588477508
32,gushikawa,26.35,127.87,78.8,88,75,14.99,JP,1588477508
33,fortuna,40.6,-124.16,54,87,1,3.36,US,1588477509
34,pangody,65.85,74.49,29.43,97,100,5.77,RU,1588477509
35,okato,-39.2,173.88,63,93,100,20,NZ,1588477297
36,dickson,36.08,-87.39,69.8,60,1,8.05,US,1588477509
37,punta arenas,-53.15,-70.92,39.2,86,40,8.05,CL,1588477509
38,puerto ayora,-0.74,-90.35,78.01,90,39,4,EC,1588477510
39,acapulco,16.86,-99.89,78.8,88,20,3.65,MX,1588477510
40,ponta do sol,32.67,-17.1,66.2,68,40,13.87,PT,1588477510
41,hobart,-42.88,147.33,55.99,50,75,11.41,AU,1588477211
42,da nang,16.07,108.22,89.6,66,20,4.7,VN,1588477510
43,tuktoyaktuk,69.45,-133.04,10.4,85,90,18.34,CA,1588477510
44,la libertad,-2.23,-80.9,74.88,80,5,7.83,EC,1588477511
45,upernavik,72.79,-56.15,23.25,97,100,15.82,GL,1588477511
46,new norfolk,-42.78,147.06,55.99,71,96,1.01,AU,1588477511
47,katsuura,35.13,140.3,80.01,57,74,20.8,JP,1588477511
48,kavaratti,10.57,72.64,87.8,70,20,5.82,IN,1588477511
49,esperance,-33.87,121.9,75.2,29,0,18.34,AU,1588477512
50,qaanaaq,77.48,-69.36,14.07,83,0,3.56,GL,1588477512
51,kebumen,-7.67,109.65,88.38,61,100,4.27,ID,1588477512
52,la ronge,55.1,-105.28,35.6,80,40,3.36,CA,1588477512
53,loudon,35.73,-84.33,64.4,68,1,4.7,US,1588477463
54,viedma,-40.81,-63,58.17,68,100,15.68,AR,1588477512
55,mergui,,,,,,,,
56,sal rei,16.18,-22.92,69.8,94,75,13.87,CV,1588477513
57,barrow,71.29,-156.79,17.6,78,75,5.82,US,1588477513
58,beloha,-25.17,45.05,64.18,80,0,3.22,MG,1588477513
59,avarua,-21.21,-159.78,80.6,78,100,14.99,CK,1588477513
60,geraldton,-28.77,114.6,78.8,24,0,9.17,AU,1588477357
61,bambanglipuro,-7.95,110.28,87.82,60,100,7.18,ID,1588477514
62,rawannawi,,,,,,,,
63,biltine,14.53,20.92,82.4,12,61,10.09,TD,1588477514
64,santa rosa,14.31,121.11,88,79,75,3.36,PH,1588477514
65,coquimbo,-29.95,-71.34,57.2,82,84,2.66,CL,1588477515
66,port elizabeth,-33.92,25.57,64.4,82,58,17.22,ZA,1588477515
67,port augusta,-32.5,137.77,60.8,63,62,8.05,AU,1588477515
68,carnarvon,-24.87,113.63,78.8,65,0,9.17,AU,1588477515
69,carballo,43.21,-8.69,54,85,77,3.02,ES,1588477515
70,oranjemund,-28.55,16.43,55.83,92,10,7.47,NA,1588477515
71,arraial do cabo,-22.97,-42.03,72.28,79,95,17.94,BR,1588477516
72,provideniya,64.38,-173.3,33.53,85,6,3.49,RU,1588477516
73,margate,51.38,1.39,48.99,71,99,1.99,GB,1588477516
74,atuona,-9.8,-139.03,82.08,77,50,21.23,PF,1588477516
75,adre,13.47,22.2,71.17,16,13,4.76,TD,1588477516
76,tiksi,71.69,128.87,15.84,91,0,6.87,RU,1588477517
77,maniitsoq,65.42,-52.9,33.19,95,100,18.99,GL,1588477517
78,khandyga,62.67,135.6,33.28,80,93,10.33,RU,1588477517
79,kailua,21.4,-157.74,80.6,61,40,16.11,US,1588477517
80,portland,45.52,-122.68,53.01,79,16,5.53,US,1588477367
81,fiche,9.8,38.73,54.82,38,88,1.32,ET,1588477517
82,mahebourg,-20.41,57.7,73.4,94,75,9.17,MU,1588477518
83,bredasdorp,-34.53,20.04,60.8,93,85,3.36,ZA,1588477518
84,bubaque,11.28,-15.83,78.01,77,0,10.63,GW,1588477518
85,hihifo,,,,,,,,
86,churapcha,62,132.43,35.11,74,0,13.31,RU,1588477518
87,hualmay,-11.1,-77.61,67.84,84,66,6.2,PE,1588477519
88,wanaka,-44.7,169.15,51.4,71,97,4.7,NZ,1588477519
89,dubenskiy,,,,,,,,
90,iqaluit,63.75,-68.51,15.8,85,75,20.8,CA,1588477363
91,broome,42.25,-75.83,55.99,54,90,5.82,US,1588477519
92,kilrush,52.64,-9.48,48.2,81,75,4.7,IE,1588477520
93,todos santos,23.45,-110.22,64,85,100,1.01,MX,1588477520
94,mys shmidta,,,,,,,,
95,ust-nera,64.57,143.2,30.92,78,100,10.76,RU,1588477520
96,lake havasu city,34.48,-114.32,86,11,1,8.05,US,1588477520
97,tsihombe,,,,,,,,
98,bilibino,68.05,166.44,32.77,81,17,2.15,RU,1588477521
99,emmett,43.87,-116.5,71.6,21,88,4.7,US,1588477493
100,nizhneyansk,,,,,,,,
101,hilo,19.73,-155.09,80.6,57,90,6.93,US,1588477521
102,yinchuan,38.47,106.27,76.26,17,70,14.63,CN,1588477521
103,illoqqortoormiut,,,,,,,,
104,mount gambier,-37.83,140.77,55.4,66,90,10.29,AU,1588477522
105,mar del plata,-38,-57.56,61,87,100,5.82,AR,1588477476
106,kodiak,57.79,-152.41,55.4,35,40,11.41,US,1588477522
107,mikhaylovsk,45.13,42.03,53.6,93,90,2.24,RU,1588477522
108,kruisfontein,-34,24.73,60.48,81,33,13.06,ZA,1588477260
109,muros,42.78,-9.06,54,95,97,4.27,ES,1588477523
110,bustamante,26.53,-100.5,81.46,47,84,11.14,MX,1588477523
111,tokur,53.13,132.9,36.27,57,62,8.72,RU,1588477523
112,torrington,41.8,-73.12,57,73,60,1.45,US,1588477523
113,lazaro cardenas,17.96,-102.2,75.49,77,0,1.95,MX,1588477523
114,torbay,47.67,-52.73,44.6,100,90,26.4,CA,1588477524
115,itoman,26.12,127.67,78.8,94,75,12.75,JP,1588477524
116,alofi,-19.06,-169.92,80.6,83,27,9.17,NU,1588477524
117,pyapon,16.28,95.68,92.88,46,58,5.35,MM,1588477524
118,naze,28.37,129.48,73.4,94,75,14.99,JP,1588477524
119,hermanus,-34.42,19.23,61.74,84,60,8.97,ZA,1588477525
120,thompson,55.74,-97.86,26.6,53,75,9.17,CA,1588477394
121,cabo san lucas,22.89,-109.91,80.6,14,40,14.54,MX,1588477486
122,saskylakh,71.92,114.08,21.24,94,10,6.17,RU,1588477525
123,castro,-24.79,-50.01,51.3,71,2,4.88,BR,1588477526
124,havoysund,71,24.66,37.4,74,99,19.46,NO,1588477526
125,periban,,,,,,,,
126,nanakuli,21.39,-158.15,80.6,61,75,13.87,US,1588477526
127,paris,48.85,2.35,53.01,66,99,4.7,FR,1588477505
128,kankon,15.02,74.02,86,74,40,8.05,IN,1588477527
129,dikson,73.51,80.55,18.39,96,88,7.65,RU,1588477527
130,port hardy,50.7,-127.42,48.2,76,75,8.05,CA,1588477528
131,gombe,10.29,11.17,82,62,92,12.5,NG,1588477528
132,fort nelson,58.81,-122.7,64.4,39,75,11.41,CA,1588477528
133,mandalgovi,45.76,106.27,54.9,20,0,3.56,MN,1588477237
134,formoso do araguaia,,,,,,,,
135,la orilla,17.98,-102.23,74.88,77,0,1.63,MX,1588477529
136,lorengau,-2.02,147.27,84.56,75,48,0.87,PG,1588477529
137,wanning,18.8,110.4,86.07,66,60,11.23,CN,1588477530
138,chokurdakh,70.63,147.92,16.09,95,100,5.03,RU,1588477530
139,xai-xai,-25.05,33.64,64.53,95,13,6.15,MZ,1588477530
140,tasiilaq,65.61,-37.64,32,97,100,9.17,GL,1588477530
141,ndele,8.41,20.65,76.75,58,68,7.36,CF,1588477531
142,touros,-5.2,-35.46,77,94,20,3.36,BR,1588477531
143,cape town,-33.93,18.42,64.99,93,75,9.17,ZA,1588477531
144,maceio,-9.67,-35.74,73.4,100,26,3.36,BR,1588477531
145,hithadhoo,-0.6,73.08,85.06,74,95,9.93,MV,1588477531
146,kjollefjord,70.95,27.35,34,89,98,13.4,NO,1588477532
147,requena,39.49,-1.1,55,70,58,3.09,ES,1588477532
148,okha,53.57,142.95,35.17,81,99,33.71,RU,1588477532
149,kaitangata,-46.28,169.85,64,57,79,1.01,NZ,1588477532
150,lieksa,63.32,30.02,39.67,90,100,8.63,FI,1588477533
151,altay,47.87,88.12,67.95,17,31,5.28,CN,1588477533
152,talnakh,69.49,88.4,30.2,58,6,8.95,RU,1588477533
153,lagoa,39.05,-27.98,57.81,66,13,13.38,PT,1588477533
154,severo-kurilsk,50.68,156.12,43.43,90,82,5.79,RU,1588477534
155,aksha,50.28,113.29,58.77,26,10,6.78,RU,1588477534
156,martil,35.62,-5.28,59,87,34,2.24,MA,1588477534
157,port moresby,-9.44,147.18,89.6,70,40,11.41,PG,1588477534
158,plaster rock,46.91,-67.39,39.2,64,1,4.7,CA,1588477535
159,sandovo,58.46,36.41,45.34,75,47,9.89,RU,1588477535
160,belushya guba,,,,,,,,
161,bethel,41.37,-73.41,62.01,66,90,3.8,US,1588477513
162,marcona,,,,,,,,
163,colares,38.8,-9.45,62.01,88,100,7.38,PT,1588477536
164,tabou,4.42,-7.35,80.51,87,77,6.62,CI,1588477536
165,tottori,35.5,134.23,68,72,90,8.05,JP,1588477336
166,durban,-29.86,31.03,64.99,72,0,5.82,ZA,1588477367
167,karasjok,69.47,25.51,35.6,80,95,25.28,NO,1588477537
168,jiujiang,29.73,115.98,91.09,44,0,2.51,CN,1588477537
169,yefimovskiy,,,,,,,,
170,nikolskoye,59.7,30.79,51.01,70,99,8.95,RU,1588477538
171,solnechnyy,50.72,136.63,52.86,34,52,8.9,RU,1588477538
172,goianapolis,-16.51,-49.02,66.2,82,70,3.36,BR,1588477538
173,virginia beach,36.85,-75.98,57.99,76,20,6.93,US,1588477404
174,leningradskiy,69.38,178.42,30.81,93,52,2.42,RU,1588477539
175,lompoc,34.64,-120.46,57.2,87,90,13.87,US,1588477250
176,bereda,43.27,-7.54,51.01,100,73,0.49,ES,1588477539
177,bukama,-9.2,25.85,67.75,77,32,2.1,CD,1588477539
178,port alfred,-33.59,26.89,64.99,85,78,3,ZA,1588477540
179,peniche,39.36,-9.38,57.99,91,100,1.99,PT,1588477540
180,nsanje,-16.92,35.26,61.79,91,99,1.63,MW,1588477540
181,airai,-8.93,125.41,71.44,52,98,5.39,TL,1588477541
182,caconda,-13.73,15.07,56.16,44,8,2.59,AO,1588477541
183,gondanglegi,-7.75,112.01,87.06,62,100,3.18,ID,1588477541
184,ganzhou,28.82,115.43,91.4,43,0,2.53,CN,1588477541
185,carbonia,39.17,8.52,64.99,87,40,2.24,IT,1588477542
186,srikakulam,18.3,83.9,90.91,60,33,14.47,IN,1588477542
187,peterhead,57.51,-1.8,43,84,0,2.24,GB,1588477542
188,saleaula,,,,,,,,
189,bryan,30.67,-96.37,77,73,1,16.11,US,1588477543
190,clyde river,70.47,-68.59,8.6,84,90,16.11,CA,1588477543
191,barentsburg,,,,,,,,
192,belyy yar,53.6,91.39,55.4,43,44,4.47,RU,1588477544
193,san pedro,14.35,121.02,88,79,75,3.36,PH,1588477544
194,ilulissat,69.22,-51.1,26.6,86,99,3.36,GL,1588477544
195,san carlos de bariloche,-41.15,-71.31,48.2,61,40,17.22,AR,1588477378
196,sakhon nakhon,17.16,104.15,96.8,47,20,3.36,TH,1588477545
197,amderma,,,,,,,,
198,amuntai,-2.42,115.25,86.86,66,96,0.56,ID,1588477545
199,kahului,20.89,-156.47,78.8,65,20,27.51,US,1588477545
200,fort smith,35.39,-94.4,73.4,69,1,3.33,US,1588477545
201,urumqi,43.8,87.6,75.2,15,2,6.71,CN,1588477545
202,cururupu,-1.83,-44.87,75.65,94,1,2.62,BR,1588477546
203,ribeira grande,38.52,-28.7,58.32,64,81,13.2,PT,1588477546
204,vila velha,-20.33,-40.29,73,94,0,2.24,BR,1588477458
205,puerto escondido,15.85,-97.07,82.11,66,1,3.58,MX,1588477308
206,sentyabrskiy,,,,,,,,
207,souillac,-20.52,57.52,73.4,94,75,9.17,MU,1588477259
208,lasa,46.62,10.7,30.2,92,26,4.7,IT,1588477547
209,acarau,-2.89,-40.12,77.5,88,9,8.19,BR,1588477547
210,lokoja,7.8,6.74,78.15,85,100,4.29,NG,1588477547
211,alyangula,-13.85,136.42,86,51,75,9.17,AU,1588477548
212,yellowknife,62.46,-114.35,41,87,20,5.82,CA,1588477548
213,santa cruz cabralia,-16.28,-39.02,75.2,88,40,1.12,BR,1588477548
214,mbuji-mayi,-6.15,23.6,69.64,79,78,3.09,CD,1588477548
215,vagur,61.47,-6.81,41.86,74,70,14.74,FO,1588477548
216,port macquarie,-31.43,152.92,68,48,1,1.01,AU,1588477549
217,norman wells,65.28,-126.83,32,96,90,16.11,CA,1588477549
218,kholmogory,64.22,41.66,37.4,55,93,6.71,RU,1588477549
219,richards bay,-28.78,32.04,62.22,73,0,5.82,ZA,1588477549
220,conway,35.09,-92.44,73.4,69,1,8.05,US,1588477550
221,uinskoye,56.88,56.58,40.46,65,68,7.92,RU,1588477550
222,bengkulu,-3.8,102.27,85.6,65,100,4.25,ID,1588477550
223,isangel,-19.55,169.27,80.49,76,65,9.78,VU,1588477550
224,treinta y tres,-33.23,-54.38,49.05,88,0,3.2,UY,1588477551
225,igarka,67.47,86.58,31.51,99,100,7.25,RU,1588477551
226,coahuayana,18.73,-103.68,72.93,64,0,1.52,MX,1588477551
227,harnosand,62.63,17.94,33.8,83,45,6.93,SE,1588477552
228,olafsvik,64.89,-23.71,36.39,74,59,3.87,IS,1588477552
229,cayenne,4.93,-52.33,77,100,75,6.24,GF,1588477552
230,bandarbeyla,9.49,50.81,86.34,71,94,9.28,SO,1588477552
231,tuatapere,-46.13,167.68,57.16,82,96,5.57,NZ,1588477553
232,hofn,64.25,-15.21,34.74,78,0,10.11,IS,1588477553
233,riyadh,24.69,46.72,75.2,22,89,8.05,SA,1588477375
234,cabedelo,-6.98,-34.83,77,94,20,2.24,BR,1588477554
235,fort wellington,6.4,-57.6,78.58,86,19,9.26,GY,1588477554
236,gorom-gorom,14.44,-0.24,84.9,13,0,7.16,BF,1588477554
237,langfang,39.51,116.69,84.99,73,20,4.47,CN,1588477555
238,necochea,-38.55,-58.74,50,97,91,1.99,AR,1588477555
239,linxia,35.6,103.21,75.78,10,0,3.53,CN,1588477555
240,constitucion,-35.33,-72.42,58.26,87,100,8.08,CL,1588477555
241,mogadishu,2.04,45.34,82.96,79,99,14.12,SO,1588477367
242,east london,-33.02,27.91,60.8,82,9,13.87,ZA,1588477556
243,bikaner,28.02,73.3,101.44,14,4,9.42,IN,1588477556
244,hudson bay,52.85,-102.38,30.7,86,62,4.54,CA,1588477557
245,praya,14.92,-23.51,73.4,53,0,8.05,CV,1588477557
246,bull savanna,17.89,-77.59,75.42,80,87,3.76,JM,1588477557
247,noyabrsk,63.2,75.45,33.28,88,99,7.34,RU,1588477558
248,codrington,-38.27,141.97,53.44,71,100,11.32,AU,1588477558
249,srednekolymsk,67.45,153.68,33.01,95,100,10.38,RU,1588477558
250,college,64.86,-147.8,50,25,40,12.75,US,1588477380
251,bradford,53.79,-1.75,42.01,90,97,0.78,GB,1588477478
252,matara,5.95,80.54,89.01,61,0,2.1,LK,1588477559
253,kudahuvadhoo,2.67,72.89,85.19,76,67,12.84,MV,1588477559
254,poum,-20.23,164.02,79.63,76,90,10.31,NC,1588477560
255,zeya,53.75,127.27,46.83,38,0,8.99,RU,1588477560
256,vestmannaeyjar,63.44,-20.27,36.99,77,6,6.64,IS,1588477560
257,daru,-9.08,143.21,82.9,85,62,12.06,PG,1588477560
258,hamilton,39.18,-84.53,72,56,20,9.17,US,1588477355
259,san policarpo,12.18,125.51,83.64,85,94,12.64,PH,1588477561
260,mihijam,23.85,86.88,89.4,40,0,6.17,IN,1588477561
261,samarai,-10.62,150.67,82.06,80,56,13.91,PG,1588477562
262,laguna,38.42,-121.42,66.2,68,1,11.41,US,1588477562
263,saldanha,-33.01,17.94,60.8,93,50,4.7,ZA,1588477506
264,mezen,65.85,44.24,32.76,93,97,5.44,RU,1588477562
265,luderitz,-26.65,15.16,62.89,54,0,15.37,NA,1588477563
266,avera,33.19,-82.53,60.8,93,1,4.85,US,1588477291
267,batagay-alyta,67.8,130.41,19.33,83,68,3.13,RU,1588477563
268,ambon,-3.7,128.18,89.6,70,40,6.93,ID,1588477563
269,dingle,11,122.67,95.27,46,82,11.1,PH,1588477564
270,abrau-dyurso,44.69,37.59,53.01,93,75,6.71,RU,1588477564
271,mosquera,4.71,-74.23,51.8,87,20,9.17,CO,1588477564
272,pont-sainte-maxence,49.3,2.6,50,61,98,8.05,FR,1588477564
273,pemba,-12.97,40.52,73.69,83,7,13.44,MZ,1588477565
274,pisco,-13.7,-76.22,66.99,82,51,11.41,PE,1588477565
275,palabuhanratu,,,,,,,,
276,lypnyazhka,48.45,31.08,53.13,82,37,4.94,UA,1588477566
277,isla mujeres,21.23,-86.73,80.6,83,75,5.82,MX,1588477388
278,ambilobe,-13.2,49.05,75.04,78,80,2.71,MG,1588477566
279,mahad,18.08,73.42,94.68,41,24,3.13,IN,1588477566
280,itaituba,-4.28,-55.98,73.9,87,100,1.86,BR,1588477567
281,salalah,17.02,54.09,84.2,89,75,1.12,OM,1588477567
282,lugo,43,-7.5,51.01,100,70,1.5,ES,1588477567
283,lubao,14.92,120.55,93.2,56,75,11.41,PH,1588477568
284,rancho palos verdes,33.74,-118.39,66,72,5,4.7,US,1588477301
285,chuy,-33.7,-53.46,54.12,81,7,3.36,UY,1588477568
286,ban bung,18.31,100.7,91.4,58,95,2.24,TH,1588477569
287,cidreira,-30.18,-50.21,59.11,80,4,4.25,BR,1588477569
288,bingol,38.88,40.49,50.25,49,11,1.9,TR,1588477364
289,nadym,65.53,72.52,27.12,98,100,11.25,RU,1588477569
290,naryan-mar,67.67,53.09,22.23,96,74,7.38,RU,1588477570
291,half moon bay,37.46,-122.43,63,93,90,5.03,US,1588477571
292,lac du bonnet,50.25,-96.06,34,73,95,7,CA,1588477571
293,quatre cocos,-20.21,57.76,75.99,94,75,9.17,MU,1588477571
294,naumburg,51.15,11.82,44.01,85,47,9.86,DE,1588477572
295,kenora,49.82,-94.43,35.01,69,90,13.87,CA,1588477358
296,vuktyl,63.86,57.31,28.85,94,89,9.33,RU,1588477572
297,aksarka,66.56,67.8,23.49,97,100,11.12,RU,1588477573
298,imbituba,-28.24,-48.67,64.4,68,11,9.17,BR,1588477329
299,coihaique,-45.58,-72.07,44.6,87,90,4.7,CL,1588477573
300,bonaberi,4.08,9.68,77,94,40,1.12,CM,1588477573
301,kavieng,-2.57,150.8,83.01,75,100,4.29,PG,1588477573
302,verkhnyaya inta,65.98,60.31,25.61,94,99,10.74,RU,1588477574
303,ji-parana,,,,,,,,
304,sitka,57.05,-135.33,48.2,81,90,14.99,US,1588477574
305,yulara,-25.24,130.99,68,40,0,16.11,AU,1588477574
306,nouadhibou,20.93,-17.03,62.6,93,75,13.87,MR,1588477558
307,havre-saint-pierre,50.23,-63.6,32,84,0,3.36,CA,1588477575
308,gizo,-8.1,156.84,85.89,69,28,3.85,SB,1588477575
309,samusu,,,,,,,,
310,outjo,-20.12,16.15,57.04,21,0,5.3,NA,1588477575
311,ariquemes,-9.91,-63.04,72.59,87,58,1.28,BR,1588477554
312,soyo,-6.13,12.37,77.52,92,90,5.84,AO,1588477576
313,khatanga,71.97,102.5,21.25,95,78,3.11,RU,1588477576
314,los llanos de aridane,28.66,-17.92,68,68,75,4.7,ES,1588477576
315,teahupoo,-17.83,-149.27,86,70,55,11.41,PF,1588477576
316,umm lajj,25.02,37.27,83.23,29,22,11.1,SA,1588477576
317,hanover,52.37,9.73,46,93,40,5.82,DE,1588477515
318,brigantine,39.41,-74.36,62.6,48,75,9.17,US,1588477577
319,kieta,-6.22,155.63,83.89,73,43,3.2,PG,1588477577
320,anadyr,64.75,177.48,21.2,92,40,2.24,RU,1588477577
321,urubicha,-15.38,-62.95,71.92,81,61,1.63,BO,1588477577
322,gat,31.61,34.76,57.99,67,16,3.58,IL,1588477578
323,jishu,44.32,126.8,50.11,79,100,7.54,CN,1588477578
324,belaya gora,68.53,146.42,23.97,95,99,14.14,RU,1588477578
325,beringovskiy,63.05,179.32,29.25,96,97,5.46,RU,1588477283
326,tuburan,6.64,122.27,86,79,75,13.87,PH,1588477579
327,birao,10.28,22.79,76.06,36,100,2.84,CF,1588477579
328,puerto madryn,-42.77,-65.04,59.2,52,27,14.5,AR,1588477579
329,makasar,-5.14,119.42,87.8,66,20,3.36,ID,1588477490
330,hohhot,40.81,111.65,69.8,26,75,11.18,CN,1588477580
331,kijang,35.24,129.21,62.6,82,90,10.29,KR,1588477580
332,grand river south east,,,,,,,,
333,nome,64.5,-165.41,46.4,52,1,8.05,US,1588477580
334,antofagasta,-23.65,-70.4,57.2,82,64,3.36,CL,1588477580
335,letlhakeng,-24.09,25.03,58.01,39,0,3.13,BW,1588477581
336,okhotsk,59.38,143.3,34.36,96,100,18.68,RU,1588477323
337,bosaso,11.28,49.18,88.65,61,80,3.49,SO,1588477581
338,saint-joseph,-21.37,55.62,73.4,60,18,6.93,RE,1588477581
339,killarney,52.05,-9.52,45.46,91,100,4.29,IE,1588477582
340,nanortalik,60.14,-45.24,35.64,93,100,22.24,GL,1588477582
341,skjervoy,70.03,20.97,37.58,78,78,12.5,NO,1588477582
342,prince rupert,54.32,-130.32,46.4,82,90,12.75,CA,1588477534
343,sambava,-14.27,50.17,76.28,78,9,8.3,MG,1588477582
344,ahipara,-35.17,173.17,65.3,91,100,15.88,NZ,1588477583
345,mirabad,30.44,61.84,80.01,32,0,1.66,AF,1588477583
346,angostura,25.37,-108.18,72,71,80,1.99,MX,1588477583
347,asau,46.43,26.4,51.01,78,56,3.2,RO,1588477583
348,hailar,49.2,119.7,49.33,34,100,7.27,CN,1588477584
349,rabo de peixe,37.8,-25.58,57.2,71,40,5.82,PT,1588477584
350,takoradi,4.88,-1.76,80.64,88,78,5.99,GH,1588477584
351,raychikhinsk,49.78,129.41,47.05,43,100,12.55,RU,1588477584
352,narsipatnam,17.67,82.62,87.8,74,20,11.41,IN,1588477585
353,usukhchay,41.42,47.91,55.4,93,40,2.24,RU,1588477585
354,arica,-18.48,-70.3,63.27,82,100,1.74,CL,1588477544
355,mount isa,-20.73,139.5,75.2,16,0,10.29,AU,1588477585
356,tautira,-17.73,-149.15,86,70,56,11.41,PF,1588477586
357,brae,60.4,-1.35,35.6,74,22,6.93,GB,1588477586
358,ola,59.58,151.28,34.77,83,100,34.63,RU,1588477586
359,cap malheureux,-19.98,57.61,75.99,82,13,7,MU,1588477586
360,beipiao,41.79,120.78,66.7,40,94,16.02,CN,1588477587
361,kununurra,-15.77,128.73,82.4,17,72,12.75,AU,1588477587
362,husavik,66.04,-17.34,23,85,0,4.7,IS,1588477587
363,ketchikan,55.34,-131.65,46.4,100,90,13.87,US,1588477588
364,santa flavia,38.09,13.54,68,75,50,7.72,IT,1588477588
365,tricase,39.93,18.36,50,93,5,5.77,IT,1588477589
366,kathmandu,27.72,85.32,68,82,75,2.24,NP,1588477317
367,kibala,9.11,18.35,82.4,58,66,9.24,TD,1588477589
368,chernyshevskiy,63.01,112.47,37.27,64,100,5.32,RU,1588477589
369,kristiansund,63.11,7.73,41,80,100,18.34,NO,1588477589
370,balkanabat,39.51,54.37,75.04,39,93,14.76,TM,1588477590
371,songjianghe,42.19,127.48,76.78,30,1,5.86,CN,1588477590
372,vao,-22.67,167.48,77.4,85,57,14.45,NC,1588477590
373,chagda,,,,,,,,
374,starobaltachevo,56,55.92,41.23,68,95,7.02,RU,1588477590
375,aswan,24.09,32.91,80.6,17,40,4.94,EG,1588477591
376,port lincoln,-34.73,135.87,61.47,67,91,9.22,AU,1588477369
377,suntar,62.14,117.63,42.12,55,6,5.5,RU,1588477591
378,piranhas,-16.43,-51.82,67.44,67,79,2.46,BR,1588477591
379,berlevag,70.86,29.09,34.18,88,90,11.7,NO,1588477592
380,chulman,56.85,124.91,31.78,68,99,6.78,RU,1588477592
381,tessalit,20.2,1.01,76.12,16,0,5.59,ML,1588477592
382,krasnaya gora,53,31.6,53.6,87,75,2.24,RU,1588477592
383,grindavik,63.84,-22.43,32,70,32,6.93,IS,1588477592
384,iquique,-20.22,-70.14,64.4,68,86,4.7,CL,1588477491
385,faya,18.39,42.45,62.6,87,26,0.27,SA,1588477593
386,sabya,17.15,42.63,84.2,83,20,3.36,SA,1588477593
387,attawapiskat,,,,,,,,
388,saint-pierre,-21.34,55.48,73.4,60,0,6.93,RE,1588477593
389,tamandare,-8.76,-35.1,78.24,81,43,4.45,BR,1588477594
390,sirajganj,24.45,89.72,83.3,58,0,3.27,BD,1588477334
391,ayan,56.45,138.17,35.8,74,100,25.7,RU,1588477594
392,voznesenye,61.01,35.48,42.12,80,100,10.78,RU,1588477594
393,tomislavgrad,43.72,17.23,41.97,64,24,5.99,BA,1588477595
394,labuhan,-6.88,112.21,85.05,70,100,5.23,ID,1588477595
395,vaitape,-16.52,-151.75,82.99,77,74,14.72,PF,1588477595
396,beira,-19.84,34.84,68,94,12,5.82,MZ,1588477595
397,inirida,3.87,-67.92,75.43,94,100,2.33,CO,1588477596
398,ikot ekpene,5.18,7.71,76.32,93,75,2.19,NG,1588477596
399,manjacaze,-24.71,33.88,62.83,95,4,4.74,MZ,1588477596
400,bud,39.45,-86.18,70,68,1,4.7,US,1588477596
401,kapuskasing,49.42,-82.43,42.8,100,90,3.06,CA,1588477597
402,deputatskiy,69.3,139.9,15.98,89,78,3.62,RU,1588477597
403,florianopolis,-27.61,-48.5,64.4,68,0,9.17,BR,1588477475
404,acari,-15.43,-74.62,72.93,61,95,3.24,PE,1588477597
405,padang,-0.95,100.35,85.17,64,95,2.8,ID,1588477364
406,kiunga,-6.12,141.29,92.73,52,91,2.19,PG,1588477598
407,santa fe,-31.63,-60.7,60.01,78,0,1.99,AR,1588477598
408,ust-kulom,61.69,53.69,33.75,83,0,5.53,RU,1588477598
409,alice springs,-23.7,133.88,66.2,42,0,16.11,AU,1588477599
410,batemans bay,-35.72,150.18,68,29,45,3,AU,1588477299
411,mragowo,53.86,21.31,42.84,91,10,4.54,PL,1588477599
412,lolua,,,,,,,,
413,bang saphan,11.21,99.51,89.6,75,40,4.7,TH,1588477600
414,fairbanks,64.84,-147.72,50,21,1,17.22,US,1588477465
415,ostrovnoy,68.05,39.51,30.58,92,100,9.73,RU,1588477600
416,ancud,-41.87,-73.82,52,100,40,11.41,CL,1588477600
417,pontianak,-0.03,109.33,84.2,79,40,3.36,ID,1588477427
418,partsa,54.37,42.86,46.89,75,44,10.6,RU,1588477601
419,mango,27.98,-82.31,73.4,73,90,5.82,US,1588477592
420,jiddah,,,,,,,,
421,abay,49.63,72.85,60.8,44,100,6.71,KZ,1588477601
422,alanya,36.54,32,63.63,70,100,4.9,TR,1588477438
423,longlac,,,,,,,,
424,vaitupu,,,,,,,,
425,dulce nombre de culmi,15.1,-85.53,68.49,73,80,1.99,HN,1588477602
426,kralendijk,12.15,-68.27,80.6,83,59,17.22,BQ,1588477602
427,marsh harbour,26.54,-77.06,74.64,61,89,12.62,BS,1588477602
428,whitianga,-36.83,175.7,64.99,97,100,11.01,NZ,1588477603
429,tolaga bay,-38.37,178.3,66.97,64,99,13.58,NZ,1588477603
430,xapuri,-10.65,-68.5,74.44,87,80,2.55,BR,1588477603
431,farafangana,-22.82,47.83,71.6,90,14,4.36,MG,1588477603
432,galatas,37.5,23.45,64,78,0,8.01,GR,1588477603
433,sur,22.57,59.53,92.05,43,0,7.25,OM,1588477604
434,bang mun nak,16.03,100.38,96.37,46,1,2.21,TH,1588477604
435,cerasu,45.32,26.03,48.99,92,100,7.34,RO,1588477604
436,olinda,-8.01,-34.86,82.4,74,75,9.17,BR,1588477604
437,aykhal,66,111.5,35.6,37,72,4.47,RU,1588477605
438,mandera,3.94,41.87,80.01,17,33,13.65,KE,1588477605
439,kitimat,54.05,-128.65,46,87,100,4,CA,1588477430
440,centralia,46.72,-122.95,50,76,40,2.57,US,1588477605
441,masaka,-0.33,31.73,64.38,65,100,1.45,UG,1588477606
442,zilair,52.23,57.44,47.37,68,8,6.33,RU,1588477606
443,danville,36.59,-79.39,60.01,67,1,3.36,US,1588477606
444,dolores,-36.31,-57.68,51.46,93,59,4.97,AR,1588477606
445,awjilah,29.11,21.29,60.66,57,55,5.03,LY,1588477606
446,diamantino,-14.41,-56.45,70.97,70,100,2.1,BR,1588477607
447,tchaourou,8.89,2.6,75.56,80,100,7.4,BJ,1588477607
448,teya,60.38,92.63,44.01,67,90,6.06,RU,1588477607
449,san cristobal,7.77,-72.22,68.41,61,91,1.57,VE,1588477607
450,praxedis guerrero,31.37,-106.02,89.6,11,5,11.41,MX,1588477608
451,vostok,46.49,135.88,53.91,29,76,8.12,RU,1588477608
452,ruwi,23.6,58.55,95,34,0,10.29,OM,1588477608
453,san patricio,19.22,-104.7,72.72,75,0,7.11,MX,1588477609
454,caramay,10.18,119.24,86.74,68,60,6.93,PH,1588477609
455,elmira,42.09,-76.81,57.2,71,90,4.7,US,1588477609
456,dolbeau,,,,,,,,
457,cheuskiny,,,,,,,,
458,sohbatpur,28.52,68.54,100.92,16,0,8.99,PK,1588477610
459,yeppoon,-23.13,150.73,75.2,31,95,11.41,AU,1588477529
460,axim,4.87,-2.24,80.44,88,74,5.91,GH,1588477610
461,maryville,35.76,-83.97,69.01,56,20,10.29,US,1588477610
462,barbar,,,,,,,,
463,meulaboh,4.14,96.13,85.98,63,91,3.69,ID,1588477611
464,nam tha,,,,,,,,
465,otane,-39.88,176.63,67.3,57,100,11.79,NZ,1588477611
466,hasaki,35.73,140.83,82,42,97,9.17,JP,1588477611
467,cascais,38.7,-9.42,62.01,88,100,7.99,PT,1588477612
468,panama city,8.99,-79.52,82.4,74,54,5.82,PA,1588477343
469,haines junction,60.75,-137.51,44.58,56,100,3.96,CA,1588477612
470,zarya,55.76,38.1,51.8,66,29,6.71,RU,1588477612
471,verkhnyaya balkariya,43.13,43.46,57.2,71,90,3.8,RU,1588477612
472,dzaoudzi,-12.79,45.27,82.4,74,40,13.87,YT,1588477613
473,horconcitos,8.47,-81.8,78.01,86,93,6.22,PA,1588477613
474,hommelvik,63.41,10.79,41,86,100,20.8,NO,1588477613
475,herat,34.5,62,66.2,63,0,2.24,AF,1588477613
476,san angelo,31.46,-100.44,84.99,39,0,5.99,US,1588477614
477,verkhnyaya sinyachikha,57.98,61.67,41.16,64,64,7.72,RU,1588477614
478,mildura,-34.2,142.15,60.01,54,40,8.05,AU,1588477614
479,charters towers,-20.1,146.27,77.36,17,32,9.06,AU,1588477614
480,pemangkat,1.17,108.97,83.05,72,100,7.63,ID,1588477562
481,bambous virieux,-20.34,57.76,75.99,94,75,9.17,MU,1588477614
482,winneba,5.35,-0.62,82.4,88,20,8.05,GH,1588477615
483,sept-iles,50.2,-66.38,37,69,5,5.82,CA,1588477615
484,banda aceh,5.56,95.32,85.73,65,100,5.61,ID,1588477615
485,raga,8.46,25.68,73.13,69,97,7.65,SS,1588477616
486,pacific grove,36.62,-121.92,59,92,44,1.99,US,1588477616
487,halalo,,,,,,,,
488,tiarei,-17.53,-149.33,86,70,58,11.41,PF,1588477616
489,gimli,50.63,-96.99,34,73,77,7,CA,1588477616
490,chinhoyi,-17.37,30.2,57.74,56,1,3.47,ZW,1588477616
491,yuanping,38.72,112.76,93.27,8,1,5.84,CN,1588477617
492,joshimath,30.57,79.57,63.93,23,49,4.61,IN,1588477617
493,ulagan,50.63,87.96,61.21,24,73,0.96,RU,1588477617
494,stutterheim,-32.57,27.42,60.8,82,10,13.87,ZA,1588477617
495,murgab,37.5,61.97,66.2,82,75,12.48,TM,1588477617
496,narsaq,60.92,-46.05,41,92,100,10.29,GL,1588477618
497,krasnovishersk,60.41,57.08,32.9,87,85,5.99,RU,1588477618
498,bilma,18.69,12.92,79.99,15,0,14.12,NE,1588477618
499,atasu,48.68,71.64,56.3,56,100,12.35,KZ,1588477618
500,cockburn town,21.46,-71.14,79.97,81,43,11.41,TC,1588477619
501,kamenskoye,,,,,,,,
502,novyye burasy,52.13,46.07,51.01,44,22,5.99,RU,1588477619
503,pochutla,15.74,-96.47,84,75,37,3.71,MX,1588477619
504,koslan,63.46,48.9,34.9,79,77,3.65,RU,1588477620
505,vardo,70.37,31.11,36.03,82,77,14.85,NO,1588477620
506,soloneshnoye,51.65,84.32,64.65,39,97,2.71,RU,1588477620
507,ballymena,54.86,-6.28,42.8,87,85,5.82,GB,1588477620
508,chicama,-7.84,-79.15,70.81,75,23,5.79,PE,1588477620
509,namibe,-15.2,12.15,75.07,69,0,4.88,AO,1588477621
510,mitu,1.2,-70.17,73.56,94,100,3,CO,1588477621
511,novyy urengoy,66.08,76.63,28.47,97,100,5.53,RU,1588477621
512,kyzyl-suu,42.34,78,56.97,31,100,4.09,KG,1588477621
513,bitung,1.45,125.18,89.6,59,20,4.7,ID,1588477622
514,uzumlu,,,,,,,,
515,jamame,0.07,42.75,79.45,82,100,10.92,SO,1588477622
516,huilong,31.81,121.66,89.01,58,0,8.01,CN,1588477622
517,santa cruz,-17.8,-63.17,68.4,75,98,4.76,BO,1588477622
518,katobu,-4.94,122.53,85.96,70,39,5.79,ID,1588477623
519,marivan,35.52,46.18,56.88,31,57,5.97,IR,1588477623
520,palembang,-2.92,104.75,82.4,83,40,2.24,ID,1588477360
521,sobolevo,54.43,31.9,51.53,89,60,6.85,RU,1588477623
522,asfi,32.3,-9.24,77.56,42,0,10.94,MA,1588477623
523,muzhi,65.37,64.67,27.27,95,99,13.47,RU,1588477624
524,humberto de campos,-2.6,-43.46,76.26,93,0,3.94,BR,1588477624
525,capaci,38.17,13.24,68,64,45,3,IT,1588477624
526,nalut,30.33,10.85,65.82,34,23,10.04,LY,1588477624
527,sortavala,61.71,30.69,41.58,85,100,10.58,RU,1588477625
528,marzuq,14.4,46.47,77,40,20,4.23,YE,1588477625
529,grand gaube,-20.01,57.66,75.99,82,17,7,MU,1588477625
530,talcahuano,-36.72,-73.12,53.6,100,75,1.16,CL,1588477625
531,port keats,-14.25,129.55,84.42,27,14,11.07,AU,1588477625
532,sibolga,1.74,98.78,82.26,76,85,2.91,ID,1588477625
533,sundsvall,62.39,17.31,32,85,40,6.93,SE,1588477626
534,zaplyusye,,,,,,,,
535,kolpashevo,58.31,82.91,56.53,57,100,16.87,RU,1588477626
536,lamu,-2.27,40.9,80.29,84,100,13.8,KE,1588477626
537,ucluelet,48.93,-125.55,48,88,32,1.01,CA,1588477627
538,madhugiri,13.66,77.21,88.32,34,21,4.63,IN,1588477627
539,falkenberg,56.91,12.49,46,93,7,2.24,SE,1588477627
540,kajiado,-1.85,36.78,62.6,93,40,1.99,KE,1588477627
541,boda,4.32,17.47,71.33,69,32,4.03,CF,1588477627
542,sokolo,14.73,-6.12,87.17,12,0,9.19,ML,1588477628
543,flinders,-34.58,150.86,64.99,34,20,8.05,AU,1588477628
544,san juan de los morros,9.91,-67.35,76.35,66,89,3.69,VE,1588477628
545,kailaras,26.32,77.62,98.65,15,0,5.19,IN,1588477628
546,constantine,36.37,6.61,50,93,22,2.24,DZ,1588477388
547,marawi,8,124.29,81.03,56,100,4.03,PH,1588477629
548,banff,51.18,-115.57,38.46,45,91,2.51,CA,1588477524
549,mayo,38.89,-76.51,59,67,1,6.93,US,1588477629
550,tazmalt,36.39,4.4,57.2,93,14,6.93,DZ,1588477629
551,iwanai,42.97,140.51,67.24,63,76,3.8,JP,1588477629
552,osakarovka,50.56,72.57,63.84,33,100,1.41,KZ,1588477630
553,amga,60.9,131.96,36.34,70,39,12.15,RU,1588477630
554,isabela,6.71,121.97,86,79,75,13.87,PH,1588477630
555,gamba,-2.65,10,78.55,90,80,5.5,GA,1588477630
556,gao,16.64,1.64,84.51,12,0,11.03,ML,1588477630
557,dunedin,-45.87,170.5,64,58,56,1.01,NZ,1588477631
558,morondava,-20.28,44.28,70.25,82,0,4.43,MG,1588477631
559,saint anthony,45.02,-93.22,62.6,29,1,5.82,US,1588477631
560,vila franca do campo,37.72,-25.43,57.2,71,40,5.82,PT,1588477631
561,taber,49.82,-112.15,51.8,34,75,6.93,CA,1588477545
562,banjar,-8.19,114.97,86,84,20,9.17,ID,1588477632
563,zemio,5.03,25.14,68.9,79,100,3.04,CF,1588477632
564,madera,37.17,-119.83,63,62,26,6.17,US,1588477421
565,alotau,,,,,,,,
566,pangnirtung,66.15,-65.71,18.27,88,84,5.7,CA,1588477633
567,senneterre,48.38,-77.23,44.6,93,90,3.36,CA,1588477633
568,caceres,39.52,-6.37,57,86,97,3.6,ES,1588477633
569,jibuti,11.5,42.5,87.8,70,1,3.85,DJ,1588477633
570,hirado,33.36,129.55,66.2,93,75,8.05,JP,1588477634
571,muyezerskiy,63.93,31.65,36.97,84,100,7.85,RU,1588477634
572,sfantu gheorghe,45.87,25.78,50,81,100,1.77,RO,1588477634
573,pasighat,28.07,95.33,76.06,72,100,1.14,IN,1588477634
574,zhanakorgan,43.91,67.25,68.52,46,52,3.8,KZ,1588477634
575,auki,-8.77,160.7,86.22,70,75,2.57,SB,1588477634
576,hervey bay,-25.3,152.85,73.99,39,22,8.99,AU,1588477635
577,lata,40.16,-8.33,57,93,100,2.24,PT,1588477635
578,aklavik,68.22,-135.01,17.6,72,90,12.75,CA,1588477635
579,umm kaddadah,13.6,26.69,76.15,11,78,7.63,SD,1588477635
580,crab hill,,,,,,,,
581,strelka,58.07,93.03,48.74,58,6,6.76,RU,1588477636
582,kosh,40.3,44.16,53.6,76,16,3.36,AM,1588477636
583,warqla,,,,,,,,
584,siilinjarvi,63.08,27.67,39.2,93,90,8.05,FI,1588477636
585,shirgaon,19.7,72.7,86,74,40,5.06,IN,1588477637
586,rio grande,-32.03,-52.1,48,96,17,5.41,BR,1588477637
587,sao filipe,14.9,-24.5,76.78,53,0,10.31,CV,1588477637
588,capitao poco,-1.75,-47.06,73.13,96,42,2.59,BR,1588477637
589,victor harbor,-35.57,138.62,60.01,65,97,5.68,AU,1588477637
590,taltal,-25.4,-70.48,61.16,74,89,4.52,CL,1588477637
591,tumannyy,,,,,,,,
592,itarantim,-15.66,-40.07,68.59,89,14,0.87,BR,1588477638
593,bani walid,31.76,13.99,66.31,38,0,7.87,LY,1588477638
594,killybegs,54.63,-8.45,43.11,85,91,6.8,IE,1588477638
595,nevelsk,46.67,141.86,62.6,25,90,8.95,RU,1588477638
596,sao joao da barra,-21.64,-41.05,71.11,90,0,14.79,BR,1588477639
597,baijiantan,45.63,85.18,77.05,17,69,5.77,CN,1588477639
598,lukulu,-14.37,23.24,59.61,47,10,3.44,ZM,1588477639
599,vila,42.03,-8.16,51.01,95,100,2.98,PT,1588477639
600,the valley,18.22,-63.06,80.6,74,20,6.93,AI,1588477639
601,preobrazheniye,42.9,133.91,62.01,60,42,10,RU,1588477640
602,anastacio,-20.48,-55.81,73.18,56,0,2.75,BR,1588477640
603,fabriano,43.34,12.91,55,85,59,1.99,IT,1588477640
604,bentiu,9.23,29.83,81.5,53,22,4.03,SS,1588477640
605,qasigiannguit,68.82,-51.19,26.6,86,94,3.36,GL,1588477640
606,hals,57,10.31,44.01,93,0,4,DK,1588477641
607,hoquiam,46.98,-123.89,51.8,71,20,14.99,US,1588477641
608,great bend,38.36,-98.76,66.2,52,75,11.41,US,1588477641
609,lomovka,53.92,58.37,41,65,75,11.18,RU,1588477641
610,letka,59.6,49.42,38.14,71,30,4.03,RU,1588477641
611,honiara,-9.43,159.95,89.6,70,20,8.05,SB,1588477642
612,qobustan,40.08,49.41,55.4,100,90,9.17,AZ,1588477642
613,juneau,58.3,-134.42,53.6,54,90,6.93,US,1588477344
614,miramar,25.99,-80.23,75.99,57,1,5.82,US,1588477642
615,den helder,52.96,4.76,50,81,75,6.93,NL,1588477642
